{
  "rehabCenters": [
    {
      "id": "1",
      "name": "Delaware Rehabilitation Center",
      "address": "123 Main Street",
      "city": "Wilmington",
      "state": "DE",
      "distance": 2.5,
      "rating": 4.8,
      "image": "/images/rehab/image1.jpeg",
      "services": ["Physical Therapy", "Occupational Therapy", "Speech Therapy", "Cardiac Rehab"],
      "availableBeds": 8,
      "totalBeds": 45,
      "coordinates": { "lat": 39.7447, "lng": -75.5484 },
      "phone": "(302) 555-0101",
      "website": "https://delaware-rehab.com",
      "description": "Comprehensive rehabilitation services with state-of-the-art facilities.",
      "specialties": ["Stroke Recovery", "Orthopedic", "Neurological"]
    },
    {
      "id": "2",
      "name": "Newark Medical Rehabilitation",
      "address": "456 University Avenue",
      "city": "Newark",
      "state": "DE",
      "distance": 5.2,
      "rating": 4.6,
      "image": "/images/rehab/image2.jpg",
      "services": ["Physical Therapy", "Occupational Therapy", "Respiratory Therapy"],
      "availableBeds": 12,
      "totalBeds": 60,
      "coordinates": { "lat": 39.6837, "lng": -75.7497 },
      "phone": "(302) 555-0202",
      "website": "https://newark-medical-rehab.com",
      "description": "Specialized medical rehabilitation with focus on respiratory care.",
      "specialties": ["Respiratory", "Cardiac", "Post-Surgical"]
    },
    {
      "id": "3",
      "name": "Dover Rehabilitation Hospital",
      "address": "789 State Street",
      "city": "Dover",
      "state": "DE",
      "distance": 15.8,
      "rating": 4.7,
      "image": "/images/rehab/image3.jpg",
      "services": ["Physical Therapy", "Occupational Therapy", "Speech Therapy", "Sports Medicine"],
      "availableBeds": 6,
      "totalBeds": 35,
      "coordinates": { "lat": 39.1582, "lng": -75.5244 },
      "phone": "(302) 555-0303",
      "website": "https://dover-rehab-hospital.com",
      "description": "State-of-the-art rehabilitation hospital serving central Delaware.",
      "specialties": ["Sports Medicine", "Orthopedic", "Neurological"]
    },
    {
      "id": "4",
      "name": "Middletown Rehabilitation Center",
      "address": "321 Broad Street",
      "city": "Middletown",
      "state": "DE",
      "distance": 12.3,
      "rating": 4.5,
      "image": "/images/rehab/image4.jpeg",
      "services": ["Physical Therapy", "Occupational Therapy", "Pain Management"],
      "availableBeds": 4,
      "totalBeds": 25,
      "coordinates": { "lat": 39.4496, "lng": -75.7163 },
      "phone": "(302) 555-0404",
      "website": "https://middletown-rehab.com",
      "description": "Comprehensive rehabilitation with focus on pain management.",
      "specialties": ["Pain Management", "Orthopedic", "Chronic Conditions"]
    },
    {
      "id": "5",
      "name": "Smyrna Rehabilitation Facility",
      "address": "654 Commerce Street",
      "city": "Smyrna",
      "state": "DE",
      "distance": 18.7,
      "rating": 4.4,
      "image": "/images/rehab/image5.jpg",
      "services": ["Physical Therapy", "Occupational Therapy", "Cardiac Rehab"],
      "availableBeds": 7,
      "totalBeds": 30,
      "coordinates": { "lat": 39.2998, "lng": -75.6046 },
      "phone": "(302) 555-0505",
      "website": "https://smyrna-rehab.com",
      "description": "Specialized cardiac rehabilitation and physical therapy services.",
      "specialties": ["Cardiac", "Physical Therapy", "Post-Surgical"]
    },
    {
      "id": "6",
      "name": "Milford Rehabilitation Center",
      "address": "987 Front Street",
      "city": "Milford",
      "state": "DE",
      "distance": 25.4,
      "rating": 4.6,
      "image": "/images/rehab/image6.jpg",
      "services": ["Physical Therapy", "Occupational Therapy", "Speech Therapy", "Respiratory Therapy"],
      "availableBeds": 5,
      "totalBeds": 28,
      "coordinates": { "lat": 38.9126, "lng": -75.4277 },
      "phone": "(302) 555-0606",
      "website": "https://milford-rehab.com",
      "description": "Comprehensive rehabilitation services in southern Delaware.",
      "specialties": ["Neurological", "Respiratory", "Stroke Recovery"]
    },
    {
      "id": "7",
      "name": "Georgetown Rehabilitation Hospital",
      "address": "147 Market Street",
      "city": "Georgetown",
      "state": "DE",
      "distance": 32.1,
      "rating": 4.3,
      "image": "/images/rehab/image7.jpeg",
      "services": ["Physical Therapy", "Occupational Therapy", "Pain Management"],
      "availableBeds": 3,
      "totalBeds": 20,
      "coordinates": { "lat": 38.6901, "lng": -75.3855 },
      "phone": "(302) 555-0707",
      "website": "https://georgetown-rehab.com",
      "description": "Specialized rehabilitation with focus on chronic pain management.",
      "specialties": ["Pain Management", "Chronic Conditions", "Orthopedic"]
    },
    {
      "id": "8",
      "name": "Seaford Rehabilitation Center",
      "address": "258 High Street",
      "city": "Seaford",
      "state": "DE",
      "distance": 28.9,
      "rating": 4.5,
      "image": "/images/rehab/image8.jpeg",
      "services": ["Physical Therapy", "Occupational Therapy", "Cardiac Rehab"],
      "availableBeds": 6,
      "totalBeds": 32,
      "coordinates": { "lat": 38.6412, "lng": -75.6116 },
      "phone": "(302) 555-0808",
      "website": "https://seaford-rehab.com",
      "description": "Comprehensive rehabilitation services in Sussex County.",
      "specialties": ["Cardiac", "Orthopedic", "Post-Surgical"]
    },
    {
      "id": "9",
      "name": "Elsmere Rehabilitation Facility",
      "address": "369 Kirkwood Highway",
      "city": "Elsmere",
      "state": "DE",
      "distance": 4.8,
      "rating": 4.7,
      "image": "/images/rehab/image9.jpeg",
      "services": ["Physical Therapy", "Occupational Therapy", "Speech Therapy"],
      "availableBeds": 9,
      "totalBeds": 40,
      "coordinates": { "lat": 39.7393, "lng": -75.5974 },
      "phone": "(302) 555-0909",
      "website": "https://elsmere-rehab.com",
      "description": "Modern rehabilitation facility with comprehensive therapy services.",
      "specialties": ["Neurological", "Stroke Recovery", "Orthopedic"]
    },
    {
      "id": "10",
      "name": "New Castle Rehabilitation Center",
      "address": "741 Delaware Street",
      "city": "New Castle",
      "state": "DE",
      "distance": 6.2,
      "rating": 4.4,
      "image": "/images/rehab/image10.jpeg",
      "services": ["Physical Therapy", "Occupational Therapy", "Respiratory Therapy"],
      "availableBeds": 5,
      "totalBeds": 25,
      "coordinates": { "lat": 39.6621, "lng": -75.5663 },
      "phone": "(302) 555-1010",
      "website": "https://newcastle-rehab.com",
      "description": "Specialized rehabilitation with focus on respiratory care.",
      "specialties": ["Respiratory", "Cardiac", "Chronic Conditions"]
    },
    {
      "id": "11",
      "name": "Wilmington North Rehabilitation",
      "address": "852 Pennsylvania Avenue",
      "city": "Wilmington",
      "state": "DE",
      "distance": 3.1,
      "rating": 4.8,
      "image": "/images/rehab/image1.webp",
      "services": ["Physical Therapy", "Occupational Therapy", "Sports Medicine"],
      "availableBeds": 11,
      "totalBeds": 50,
      "coordinates": { "lat": 39.7489, "lng": -75.5478 },
      "phone": "(302) 555-1111",
      "website": "https://wilmington-north-rehab.com",
      "description": "Advanced rehabilitation center with sports medicine specialization.",
      "specialties": ["Sports Medicine", "Orthopedic", "Athletic Recovery"]
    },
    {
      "id": "12",
      "name": "Christiana Rehabilitation Hospital",
      "address": "475 Ogletown Road",
      "city": "Newark",
      "state": "DE",
      "distance": 7.8,
      "rating": 4.9,
      "image": "/images/rehab/image2.jpg",
      "services": ["Physical Therapy", "Occupational Therapy", "Speech Therapy", "Cardiac Rehab"],
      "availableBeds": 15,
      "totalBeds": 75,
      "coordinates": { "lat": 39.6827, "lng": -75.7497 },
      "phone": "(302) 555-1212",
      "website": "https://christiana-rehab.com",
      "description": "Premier rehabilitation hospital with comprehensive care services.",
      "specialties": ["Neurological", "Cardiac", "Post-Surgical", "Stroke Recovery"]
    },
    {
      "id": "13",
      "name": "Dover South Rehabilitation",
      "address": "159 South State Street",
      "city": "Dover",
      "state": "DE",
      "distance": 16.2,
      "rating": 4.6,
      "image": "/images/rehab/image3.jpg",
      "services": ["Physical Therapy", "Occupational Therapy", "Pain Management"],
      "availableBeds": 8,
      "totalBeds": 35,
      "coordinates": { "lat": 39.1582, "lng": -75.5244 },
      "phone": "(302) 555-1313",
      "website": "https://dover-south-rehab.com",
      "description": "Specialized rehabilitation with focus on pain management.",
      "specialties": ["Pain Management", "Chronic Conditions", "Orthopedic"]
    },
    {
      "id": "14",
      "name": "Middletown East Rehabilitation",
      "address": "267 East Main Street",
      "city": "Middletown",
      "state": "DE",
      "distance": 13.1,
      "rating": 4.5,
      "image": "/images/rehab/image4.jpeg",
      "services": ["Physical Therapy", "Occupational Therapy", "Respiratory Therapy"],
      "availableBeds": 6,
      "totalBeds": 30,
      "coordinates": { "lat": 39.4496, "lng": -75.7163 },
      "phone": "(302) 555-1414",
      "website": "https://middletown-east-rehab.com",
      "description": "Comprehensive rehabilitation with respiratory care focus.",
      "specialties": ["Respiratory", "Cardiac", "Post-Surgical"]
    },
    {
      "id": "15",
      "name": "Smyrna North Rehabilitation",
      "address": "384 North Main Street",
      "city": "Smyrna",
      "state": "DE",
      "distance": 19.3,
      "rating": 4.4,
      "image": "/images/rehab/image5.jpg",
      "services": ["Physical Therapy", "Occupational Therapy", "Speech Therapy"],
      "availableBeds": 4,
      "totalBeds": 22,
      "coordinates": { "lat": 39.2998, "lng": -75.6046 },
      "phone": "(302) 555-1515",
      "website": "https://smyrna-north-rehab.com",
      "description": "Specialized rehabilitation with speech therapy services.",
      "specialties": ["Speech Therapy", "Neurological", "Stroke Recovery"]
    },
    {
      "id": "16",
      "name": "Milford West Rehabilitation",
      "address": "573 West Church Street",
      "city": "Milford",
      "state": "DE",
      "distance": 26.7,
      "rating": 4.6,
      "image": "/images/rehab/image6.jpg",
      "services": ["Physical Therapy", "Occupational Therapy", "Cardiac Rehab"],
      "availableBeds": 7,
      "totalBeds": 35,
      "coordinates": { "lat": 38.9126, "lng": -75.4277 },
      "phone": "(302) 555-1616",
      "website": "https://milford-west-rehab.com",
      "description": "Cardiac rehabilitation specialist in southern Delaware.",
      "specialties": ["Cardiac", "Physical Therapy", "Post-Surgical"]
    },
    {
      "id": "17",
      "name": "Georgetown East Rehabilitation",
      "address": "891 East Market Street",
      "city": "Georgetown",
      "state": "DE",
      "distance": 33.5,
      "rating": 4.3,
      "image": "/images/rehab/image7.jpeg",
      "services": ["Physical Therapy", "Occupational Therapy", "Pain Management"],
      "availableBeds": 5,
      "totalBeds": 25,
      "coordinates": { "lat": 38.6901, "lng": -75.3855 },
      "phone": "(302) 555-1717",
      "website": "https://georgetown-east-rehab.com",
      "description": "Pain management specialist in Sussex County.",
      "specialties": ["Pain Management", "Chronic Conditions", "Orthopedic"]
    },
    {
      "id": "18",
      "name": "Seaford North Rehabilitation",
      "address": "124 North Pine Street",
      "city": "Seaford",
      "state": "DE",
      "distance": 29.8,
      "rating": 4.5,
      "image": "/images/rehab/image8.jpeg",
      "services": ["Physical Therapy", "Occupational Therapy", "Respiratory Therapy"],
      "availableBeds": 4,
      "totalBeds": 20,
      "coordinates": { "lat": 38.6412, "lng": -75.6116 },
      "phone": "(302) 555-1818",
      "website": "https://seaford-north-rehab.com",
      "description": "Respiratory rehabilitation specialist in Sussex County.",
      "specialties": ["Respiratory", "Cardiac", "Chronic Conditions"]
    },
    {
      "id": "19",
      "name": "Elsmere West Rehabilitation",
      "address": "456 West Kirkwood Highway",
      "city": "Elsmere",
      "state": "DE",
      "distance": 5.4,
      "rating": 4.7,
      "image": "/images/rehab/image9.jpeg",
      "services": ["Physical Therapy", "Occupational Therapy", "Sports Medicine"],
      "availableBeds": 8,
      "totalBeds": 35,
      "coordinates": { "lat": 39.7393, "lng": -75.5974 },
      "phone": "(302) 555-1919",
      "website": "https://elsmere-west-rehab.com",
      "description": "Sports medicine and athletic recovery specialist.",
      "specialties": ["Sports Medicine", "Athletic Recovery", "Orthopedic"]
    },
    {
      "id": "20",
      "name": "New Castle East Rehabilitation",
      "address": "789 East Delaware Street",
      "city": "New Castle",
      "state": "DE",
      "distance": 6.8,
      "rating": 4.4,
      "image": "/images/rehab/image10.jpeg",
      "services": ["Physical Therapy", "Occupational Therapy", "Speech Therapy"],
      "availableBeds": 6,
      "totalBeds": 28,
      "coordinates": { "lat": 39.6621, "lng": -75.5663 },
      "phone": "(302) 555-2020",
      "website": "https://newcastle-east-rehab.com",
      "description": "Comprehensive rehabilitation with speech therapy focus.",
      "specialties": ["Speech Therapy", "Neurological", "Stroke Recovery"]
    },
    {
      "id": "21",
      "name": "Wilmington South Rehabilitation",
      "address": "234 South Market Street",
      "city": "Wilmington",
      "state": "DE",
      "distance": 1.8,
      "rating": 4.8,
      "image": "/images/rehab/image1.jpeg",
      "services": ["Physical Therapy", "Occupational Therapy", "Cardiac Rehab"],
      "availableBeds": 12,
      "totalBeds": 55,
      "coordinates": { "lat": 39.7447, "lng": -75.5484 },
      "phone": "(302) 555-2121",
      "website": "https://wilmington-south-rehab.com",
      "description": "Cardiac rehabilitation specialist in downtown Wilmington.",
      "specialties": ["Cardiac", "Physical Therapy", "Post-Surgical"]
    },
    {
      "id": "22",
      "name": "Newark West Rehabilitation",
      "address": "567 West Main Street",
      "city": "Newark",
      "state": "DE",
      "distance": 8.2,
      "rating": 4.6,
      "image": "/images/rehab/image2.jpg",
      "services": ["Physical Therapy", "Occupational Therapy", "Pain Management"],
      "availableBeds": 9,
      "totalBeds": 40,
      "coordinates": { "lat": 39.6837, "lng": -75.7497 },
      "phone": "(302) 555-2222",
      "website": "https://newark-west-rehab.com",
      "description": "Pain management specialist in western Newark.",
      "specialties": ["Pain Management", "Chronic Conditions", "Orthopedic"]
    },
    {
      "id": "23",
      "name": "Dover North Rehabilitation",
      "address": "345 North State Street",
      "city": "Dover",
      "state": "DE",
      "distance": 17.1,
      "rating": 4.7,
      "image": "/images/rehab/image3.jpg",
      "services": ["Physical Therapy", "Occupational Therapy", "Respiratory Therapy"],
      "availableBeds": 7,
      "totalBeds": 32,
      "coordinates": { "lat": 39.1582, "lng": -75.5244 },
      "phone": "(302) 555-2323",
      "website": "https://dover-north-rehab.com",
      "description": "Respiratory rehabilitation specialist in northern Dover.",
      "specialties": ["Respiratory", "Cardiac", "Chronic Conditions"]
    },
    {
      "id": "24",
      "name": "Middletown South Rehabilitation",
      "address": "678 South Broad Street",
      "city": "Middletown",
      "state": "DE",
      "distance": 14.6,
      "rating": 4.5,
      "image": "/images/rehab/image4.jpeg",
      "services": ["Physical Therapy", "Occupational Therapy", "Sports Medicine"],
      "availableBeds": 5,
      "totalBeds": 25,
      "coordinates": { "lat": 39.4496, "lng": -75.7163 },
      "phone": "(302) 555-2424",
      "website": "https://middletown-south-rehab.com",
      "description": "Sports medicine specialist in southern Middletown.",
      "specialties": ["Sports Medicine", "Athletic Recovery", "Orthopedic"]
    },
    {
      "id": "25",
      "name": "Smyrna South Rehabilitation",
      "address": "123 South Commerce Street",
      "city": "Smyrna",
      "state": "DE",
      "distance": 20.8,
      "rating": 4.4,
      "image": "/images/rehab/image5.jpg",
      "services": ["Physical Therapy", "Occupational Therapy", "Speech Therapy"],
      "availableBeds": 6,
      "totalBeds": 28,
      "coordinates": { "lat": 39.2998, "lng": -75.6046 },
      "phone": "(302) 555-2525",
      "website": "https://smyrna-south-rehab.com",
      "description": "Speech therapy specialist in southern Smyrna.",
      "specialties": ["Speech Therapy", "Neurological", "Stroke Recovery"]
    },
    {
      "id": "26",
      "name": "Milford East Rehabilitation",
      "address": "456 East Church Street",
      "city": "Milford",
      "state": "DE",
      "distance": 27.3,
      "rating": 4.6,
      "image": "/images/rehab/image6.jpg",
      "services": ["Physical Therapy", "Occupational Therapy", "Pain Management"],
      "availableBeds": 8,
      "totalBeds": 35,
      "coordinates": { "lat": 38.9126, "lng": -75.4277 },
      "phone": "(302) 555-2626",
      "website": "https://milford-east-rehab.com",
      "description": "Pain management specialist in eastern Milford.",
      "specialties": ["Pain Management", "Chronic Conditions", "Orthopedic"]
    },
    {
      "id": "27",
      "name": "Georgetown West Rehabilitation",
      "address": "789 West Market Street",
      "city": "Georgetown",
      "state": "DE",
      "distance": 34.2,
      "rating": 4.3,
      "image": "/images/rehab/image7.jpeg",
      "services": ["Physical Therapy", "Occupational Therapy", "Cardiac Rehab"],
      "availableBeds": 4,
      "totalBeds": 20,
      "coordinates": { "lat": 38.6901, "lng": -75.3855 },
      "phone": "(302) 555-2727",
      "website": "https://georgetown-west-rehab.com",
      "description": "Cardiac rehabilitation specialist in western Georgetown.",
      "specialties": ["Cardiac", "Physical Therapy", "Post-Surgical"]
    },
    {
      "id": "28",
      "name": "Seaford South Rehabilitation",
      "address": "234 South High Street",
      "city": "Seaford",
      "state": "DE",
      "distance": 30.5,
      "rating": 4.5,
      "image": "/images/rehab/image8.jpeg",
      "services": ["Physical Therapy", "Occupational Therapy", "Sports Medicine"],
      "availableBeds": 5,
      "totalBeds": 25,
      "coordinates": { "lat": 38.6412, "lng": -75.6116 },
      "phone": "(302) 555-2828",
      "website": "https://seaford-south-rehab.com",
      "description": "Sports medicine specialist in southern Seaford.",
      "specialties": ["Sports Medicine", "Athletic Recovery", "Orthopedic"]
    },
    {
      "id": "29",
      "name": "Elsmere East Rehabilitation",
      "address": "567 East Kirkwood Highway",
      "city": "Elsmere",
      "state": "DE",
      "distance": 5.9,
      "rating": 4.7,
      "image": "/images/rehab/image9.jpeg",
      "services": ["Physical Therapy", "Occupational Therapy", "Respiratory Therapy"],
      "availableBeds": 7,
      "totalBeds": 30,
      "coordinates": { "lat": 39.7393, "lng": -75.5974 },
      "phone": "(302) 555-2929",
      "website": "https://elsmere-east-rehab.com",
      "description": "Respiratory rehabilitation specialist in eastern Elsmere.",
      "specialties": ["Respiratory", "Cardiac", "Chronic Conditions"]
    },
    {
      "id": "30",
      "name": "New Castle West Rehabilitation",
      "address": "890 West Delaware Street",
      "city": "New Castle",
      "state": "DE",
      "distance": 7.1,
      "rating": 4.4,
      "image": "/images/rehab/image10.jpeg",
      "services": ["Physical Therapy", "Occupational Therapy", "Pain Management"],
      "availableBeds": 6,
      "totalBeds": 28,
      "coordinates": { "lat": 39.6621, "lng": -75.5663 },
      "phone": "(302) 555-3030",
      "website": "https://newcastle-west-rehab.com",
      "description": "Pain management specialist in western New Castle.",
      "specialties": ["Pain Management", "Chronic Conditions", "Orthopedic"]
    },
    {
      "id": "31",
      "name": "Wilmington East Rehabilitation",
      "address": "123 East Market Street",
      "city": "Wilmington",
      "state": "DE",
      "distance": 2.8,
      "rating": 4.8,
      "image": "/images/rehab/image1.webp",
      "services": ["Physical Therapy", "Occupational Therapy", "Speech Therapy"],
      "availableBeds": 10,
      "totalBeds": 45,
      "coordinates": { "lat": 39.7447, "lng": -75.5484 },
      "phone": "(302) 555-3131",
      "website": "https://wilmington-east-rehab.com",
      "description": "Speech therapy specialist in eastern Wilmington.",
      "specialties": ["Speech Therapy", "Neurological", "Stroke Recovery"]
    },
    {
      "id": "32",
      "name": "Newark South Rehabilitation",
      "address": "456 South Main Street",
      "city": "Newark",
      "state": "DE",
      "distance": 9.3,
      "rating": 4.6,
      "image": "/images/rehab/image2.jpg",
      "services": ["Physical Therapy", "Occupational Therapy", "Sports Medicine"],
      "availableBeds": 8,
      "totalBeds": 35,
      "coordinates": { "lat": 39.6837, "lng": -75.7497 },
      "phone": "(302) 555-3232",
      "website": "https://newark-south-rehab.com",
      "description": "Sports medicine specialist in southern Newark.",
      "specialties": ["Sports Medicine", "Athletic Recovery", "Orthopedic"]
    },
    {
      "id": "33",
      "name": "Dover West Rehabilitation",
      "address": "789 West State Street",
      "city": "Dover",
      "state": "DE",
      "distance": 18.5,
      "rating": 4.7,
      "image": "/images/rehab/image3.jpg",
      "services": ["Physical Therapy", "Occupational Therapy", "Cardiac Rehab"],
      "availableBeds": 9,
      "totalBeds": 40,
      "coordinates": { "lat": 39.1582, "lng": -75.5244 },
      "phone": "(302) 555-3333",
      "website": "https://dover-west-rehab.com",
      "description": "Cardiac rehabilitation specialist in western Dover.",
      "specialties": ["Cardiac", "Physical Therapy", "Post-Surgical"]
    },
    {
      "id": "34",
      "name": "Middletown West Rehabilitation",
      "address": "234 West Broad Street",
      "city": "Middletown",
      "state": "DE",
      "distance": 15.2,
      "rating": 4.5,
      "image": "/images/rehab/image4.jpeg",
      "services": ["Physical Therapy", "Occupational Therapy", "Respiratory Therapy"],
      "availableBeds": 6,
      "totalBeds": 28,
      "coordinates": { "lat": 39.4496, "lng": -75.7163 },
      "phone": "(302) 555-3434",
      "website": "https://middletown-west-rehab.com",
      "description": "Respiratory rehabilitation specialist in western Middletown.",
      "specialties": ["Respiratory", "Cardiac", "Chronic Conditions"]
    },
    {
      "id": "35",
      "name": "Smyrna East Rehabilitation",
      "address": "567 East Commerce Street",
      "city": "Smyrna",
      "state": "DE",
      "distance": 21.7,
      "rating": 4.4,
      "image": "/images/rehab/image5.jpg",
      "services": ["Physical Therapy", "Occupational Therapy", "Pain Management"],
      "availableBeds": 5,
      "totalBeds": 25,
      "coordinates": { "lat": 39.2998, "lng": -75.6046 },
      "phone": "(302) 555-3535",
      "website": "https://smyrna-east-rehab.com",
      "description": "Pain management specialist in eastern Smyrna.",
      "specialties": ["Pain Management", "Chronic Conditions", "Orthopedic"]
    },
    {
      "id": "36",
      "name": "Milford North Rehabilitation",
      "address": "890 North Church Street",
      "city": "Milford",
      "state": "DE",
      "distance": 28.9,
      "rating": 4.6,
      "image": "/images/rehab/image6.jpg",
      "services": ["Physical Therapy", "Occupational Therapy", "Speech Therapy"],
      "availableBeds": 7,
      "totalBeds": 32,
      "coordinates": { "lat": 38.9126, "lng": -75.4277 },
      "phone": "(302) 555-3636",
      "website": "https://milford-north-rehab.com",
      "description": "Speech therapy specialist in northern Milford.",
      "specialties": ["Speech Therapy", "Neurological", "Stroke Recovery"]
    },
    {
      "id": "37",
      "name": "Georgetown North Rehabilitation",
      "address": "123 North Market Street",
      "city": "Georgetown",
      "state": "DE",
      "distance": 35.8,
      "rating": 4.3,
      "image": "/images/rehab/image7.jpeg",
      "services": ["Physical Therapy", "Occupational Therapy", "Sports Medicine"],
      "availableBeds": 4,
      "totalBeds": 20,
      "coordinates": { "lat": 38.6901, "lng": -75.3855 },
      "phone": "(302) 555-3737",
      "website": "https://georgetown-north-rehab.com",
      "description": "Sports medicine specialist in northern Georgetown.",
      "specialties": ["Sports Medicine", "Athletic Recovery", "Orthopedic"]
    },
    {
      "id": "38",
      "name": "Seaford East Rehabilitation",
      "address": "456 East High Street",
      "city": "Seaford",
      "state": "DE",
      "distance": 31.2,
      "rating": 4.5,
      "image": "/images/rehab/image8.jpeg",
      "services": ["Physical Therapy", "Occupational Therapy", "Cardiac Rehab"],
      "availableBeds": 6,
      "totalBeds": 28,
      "coordinates": { "lat": 38.6412, "lng": -75.6116 },
      "phone": "(302) 555-3838",
      "website": "https://seaford-east-rehab.com",
      "description": "Cardiac rehabilitation specialist in eastern Seaford.",
      "specialties": ["Cardiac", "Physical Therapy", "Post-Surgical"]
    },
    {
      "id": "39",
      "name": "Elsmere South Rehabilitation",
      "address": "789 South Kirkwood Highway",
      "city": "Elsmere",
      "state": "DE",
      "distance": 6.5,
      "rating": 4.7,
      "image": "/images/rehab/image9.jpeg",
      "services": ["Physical Therapy", "Occupational Therapy", "Pain Management"],
      "availableBeds": 8,
      "totalBeds": 35,
      "coordinates": { "lat": 39.7393, "lng": -75.5974 },
      "phone": "(302) 555-3939",
      "website": "https://elsmere-south-rehab.com",
      "description": "Pain management specialist in southern Elsmere.",
      "specialties": ["Pain Management", "Chronic Conditions", "Orthopedic"]
    },
    {
      "id": "40",
      "name": "New Castle North Rehabilitation",
      "address": "234 North Delaware Street",
      "city": "New Castle",
      "state": "DE",
      "distance": 7.8,
      "rating": 4.4,
      "image": "/images/rehab/image10.jpeg",
      "services": ["Physical Therapy", "Occupational Therapy", "Respiratory Therapy"],
      "availableBeds": 5,
      "totalBeds": 25,
      "coordinates": { "lat": 39.6621, "lng": -75.5663 },
      "phone": "(302) 555-4040",
      "website": "https://newcastle-north-rehab.com",
      "description": "Respiratory rehabilitation specialist in northern New Castle.",
      "specialties": ["Respiratory", "Cardiac", "Chronic Conditions"]
    },
    {
      "id": "41",
      "name": "Wilmington Central Rehabilitation",
      "address": "567 Central Avenue",
      "city": "Wilmington",
      "state": "DE",
      "distance": 1.2,
      "rating": 4.9,
      "image": "/images/rehab/image1.jpeg",
      "services": ["Physical Therapy", "Occupational Therapy", "Speech Therapy", "Cardiac Rehab"],
      "availableBeds": 14,
      "totalBeds": 65,
      "coordinates": { "lat": 39.7447, "lng": -75.5484 },
      "phone": "(302) 555-4141",
      "website": "https://wilmington-central-rehab.com",
      "description": "Premier rehabilitation center in central Wilmington.",
      "specialties": ["Neurological", "Cardiac", "Stroke Recovery", "Post-Surgical"]
    },
    {
      "id": "42",
      "name": "Newark Central Rehabilitation",
      "address": "890 Central Boulevard",
      "city": "Newark",
      "state": "DE",
      "distance": 6.7,
      "rating": 4.8,
      "image": "/images/rehab/image2.jpg",
      "services": ["Physical Therapy", "Occupational Therapy", "Respiratory Therapy", "Sports Medicine"],
      "availableBeds": 12,
      "totalBeds": 55,
      "coordinates": { "lat": 39.6837, "lng": -75.7497 },
      "phone": "(302) 555-4242",
      "website": "https://newark-central-rehab.com",
      "description": "Comprehensive rehabilitation center in central Newark.",
      "specialties": ["Respiratory", "Sports Medicine", "Orthopedic", "Post-Surgical"]
    },
    {
      "id": "43",
      "name": "Dover Central Rehabilitation",
      "address": "123 Central Plaza",
      "city": "Dover",
      "state": "DE",
      "distance": 16.8,
      "rating": 4.7,
      "image": "/images/rehab/image3.jpg",
      "services": ["Physical Therapy", "Occupational Therapy", "Pain Management", "Cardiac Rehab"],
      "availableBeds": 10,
      "totalBeds": 45,
      "coordinates": { "lat": 39.1582, "lng": -75.5244 },
      "phone": "(302) 555-4343",
      "website": "https://dover-central-rehab.com",
      "description": "Comprehensive rehabilitation center in central Dover.",
      "specialties": ["Pain Management", "Cardiac", "Chronic Conditions", "Post-Surgical"]
    },
    {
      "id": "44",
      "name": "Middletown Central Rehabilitation",
      "address": "456 Central Square",
      "city": "Middletown",
      "state": "DE",
      "distance": 13.9,
      "rating": 4.6,
      "image": "/images/rehab/image4.jpeg",
      "services": ["Physical Therapy", "Occupational Therapy", "Speech Therapy", "Sports Medicine"],
      "availableBeds": 8,
      "totalBeds": 38,
      "coordinates": { "lat": 39.4496, "lng": -75.7163 },
      "phone": "(302) 555-4444",
      "website": "https://middletown-central-rehab.com",
      "description": "Comprehensive rehabilitation center in central Middletown.",
      "specialties": ["Speech Therapy", "Sports Medicine", "Neurological", "Athletic Recovery"]
    },
    {
      "id": "45",
      "name": "Smyrna Central Rehabilitation",
      "address": "789 Central Drive",
      "city": "Smyrna",
      "state": "DE",
      "distance": 20.1,
      "rating": 4.5,
      "image": "/images/rehab/image5.jpg",
      "services": ["Physical Therapy", "Occupational Therapy", "Respiratory Therapy", "Pain Management"],
      "availableBeds": 7,
      "totalBeds": 32,
      "coordinates": { "lat": 39.2998, "lng": -75.6046 },
      "phone": "(302) 555-4545",
      "website": "https://smyrna-central-rehab.com",
      "description": "Comprehensive rehabilitation center in central Smyrna.",
      "specialties": ["Respiratory", "Pain Management", "Chronic Conditions", "Post-Surgical"]
    },
    {
      "id": "46",
      "name": "Milford Central Rehabilitation",
      "address": "234 Central Court",
      "city": "Milford",
      "state": "DE",
      "distance": 27.8,
      "rating": 4.6,
      "image": "/images/rehab/image6.jpg",
      "services": ["Physical Therapy", "Occupational Therapy", "Cardiac Rehab", "Speech Therapy"],
      "availableBeds": 9,
      "totalBeds": 40,
      "coordinates": { "lat": 38.9126, "lng": -75.4277 },
      "phone": "(302) 555-4646",
      "website": "https://milford-central-rehab.com",
      "description": "Comprehensive rehabilitation center in central Milford.",
      "specialties": ["Cardiac", "Speech Therapy", "Post-Surgical", "Stroke Recovery"]
    },
    {
      "id": "47",
      "name": "Georgetown Central Rehabilitation",
      "address": "567 Central Way",
      "city": "Georgetown",
      "state": "DE",
      "distance": 34.7,
      "rating": 4.4,
      "image": "/images/rehab/image7.jpeg",
      "services": ["Physical Therapy", "Occupational Therapy", "Sports Medicine", "Pain Management"],
      "availableBeds": 6,
      "totalBeds": 28,
      "coordinates": { "lat": 38.6901, "lng": -75.3855 },
      "phone": "(302) 555-4747",
      "website": "https://georgetown-central-rehab.com",
      "description": "Comprehensive rehabilitation center in central Georgetown.",
      "specialties": ["Sports Medicine", "Pain Management", "Athletic Recovery", "Chronic Conditions"]
    },
    {
      "id": "48",
      "name": "Seaford Central Rehabilitation",
      "address": "890 Central Lane",
      "city": "Seaford",
      "state": "DE",
      "distance": 30.9,
      "rating": 4.5,
      "image": "/images/rehab/image8.jpeg",
      "services": ["Physical Therapy", "Occupational Therapy", "Respiratory Therapy", "Cardiac Rehab"],
      "availableBeds": 8,
      "totalBeds": 35,
      "coordinates": { "lat": 38.6412, "lng": -75.6116 },
      "phone": "(302) 555-4848",
      "website": "https://seaford-central-rehab.com",
      "description": "Comprehensive rehabilitation center in central Seaford.",
      "specialties": ["Respiratory", "Cardiac", "Chronic Conditions", "Post-Surgical"]
    },
    {
      "id": "49",
      "name": "Elsmere Central Rehabilitation",
      "address": "123 Central Road",
      "city": "Elsmere",
      "state": "DE",
      "distance": 5.6,
      "rating": 4.7,
      "image": "/images/rehab/image9.jpeg",
      "services": ["Physical Therapy", "Occupational Therapy", "Speech Therapy", "Sports Medicine"],
      "availableBeds": 10,
      "totalBeds": 45,
      "coordinates": { "lat": 39.7393, "lng": -75.5974 },
      "phone": "(302) 555-4949",
      "website": "https://elsmere-central-rehab.com",
      "description": "Comprehensive rehabilitation center in central Elsmere.",
      "specialties": ["Speech Therapy", "Sports Medicine", "Neurological", "Athletic Recovery"]
    },
    {
      "id": "50",
      "name": "New Castle Central Rehabilitation",
      "address": "456 Central Street",
      "city": "New Castle",
      "state": "DE",
      "distance": 7.3,
      "rating": 4.5,
      "image": "/images/rehab/image10.jpeg",
      "services": ["Physical Therapy", "Occupational Therapy", "Pain Management", "Cardiac Rehab"],
      "availableBeds": 7,
      "totalBeds": 32,
      "coordinates": { "lat": 39.6621, "lng": -75.5663 },
      "phone": "(302) 555-5050",
      "website": "https://newcastle-central-rehab.com",
      "description": "Comprehensive rehabilitation center in central New Castle.",
      "specialties": ["Pain Management", "Cardiac", "Chronic Conditions", "Post-Surgical"]
    }
  ]
} 